City ID,City,Cloudiness,Country,Date,Humidity,Lat,Lng,Max Temp,Wind Speed
0,Sorong,40,ID,1650909014,84,-0.8833,131.25,79.48,1.1
1,Sioux Lookout,100,CA,1650909015,73,50.1001,-91.917,17.67,12.66
2,Rikitea,100,PF,1650908901,78,-23.1203,-134.9692,75.58,13.29
3,Vaini,100,TO,1650908675,94,-21.2,-175.2,71.76,18.41
4,Kruisfontein,55,ZA,1650908676,81,-34.0033,24.7314,57.88,6.35
5,Hazorasp,100,UZ,1650909016,29,41.3194,61.0742,62.44,15.08
6,Lebu,100,CL,1650909016,69,-37.6167,-73.65,56.75,21.7
7,Butaritari,29,KI,1650909017,83,3.0707,172.7902,79.81,15.03
8,Nishihara,75,JP,1650909017,97,26.1842,127.7558,76.68,13.8
9,Busselton,97,AU,1650909017,74,-33.65,115.3333,62.62,17.65
10,Albany,100,US,1650908932,34,42.6001,-73.9662,67.95,7.0
11,Cape Town,0,ZA,1650909002,70,-33.9258,18.4232,61.21,14.97
12,Hasaki,98,JP,1650909018,89,35.7333,140.8333,61.2,5.99
13,Owando,93,CG,1650909018,78,-0.4819,15.8999,78.3,3.53
14,Los Llanos de Aridane,20,ES,1650909019,79,28.6585,-17.9182,69.55,9.22
15,Porto-Novo,43,BJ,1650909019,77,6.4965,2.6036,85.82,8.7
16,Vyaz'ma,100,RU,1650909020,97,55.2104,34.2951,46.6,3.89
17,East London,0,ZA,1650909020,88,-33.0153,27.9116,58.14,9.22
18,Puerto Ayora,78,EC,1650909021,78,-0.7393,-90.3518,76.96,10.0
19,Kitui,80,KE,1650909021,78,-1.367,38.0106,67.44,2.19
20,Asău,35,RO,1650909022,77,46.4333,26.4,53.96,5.21
21,Jamestown,75,US,1650909023,46,42.097,-79.2353,76.64,12.66
22,Sola,81,VU,1650909023,74,-13.8833,167.55,79.77,8.03
23,Port Elizabeth,0,ZA,1650908878,90,-33.918,25.5701,60.1,13.8
24,Samarai,52,PG,1650908689,78,-10.6167,150.6667,82.31,13.78
25,Poum,93,NC,1650908690,66,-20.2333,164.0167,74.95,13.67
26,Saskylakh,83,RU,1650908690,100,71.9167,114.0833,-8.54,3.83
27,New Norfolk,71,AU,1650908691,85,-42.7826,147.0587,50.72,2.26
28,Ushuaia,75,AR,1650908692,75,-54.8,-68.3,42.46,17.27
29,Brighton,40,GB,1650908637,62,50.8284,-0.1395,57.61,12.66
30,Baykit,97,RU,1650908693,93,61.67,96.37,22.42,3.29
31,Nikolskoye,100,RU,1650908694,96,59.7035,30.7861,41.72,4.59
32,Port Alfred,46,ZA,1650908695,86,-33.5906,26.891,58.17,1.01
33,Hailar,96,CN,1650908695,97,49.2,119.7,33.01,22.66
34,Port Hedland,65,AU,1650908696,83,-20.3167,118.5667,71.65,1.14
35,Bilibino,100,RU,1650908697,89,68.0546,166.4372,12.85,4.21
36,Baker City,0,US,1650908698,34,44.7749,-117.8344,57.6,14.97
37,Mataura,19,NZ,1650908699,82,-46.1927,168.8643,50.49,6.4
38,Karatau,33,KZ,1650908699,57,43.1667,70.4667,52.77,4.38
39,Ithaca,0,US,1650908639,53,42.4406,-76.4966,77.02,13.8
40,Lantangan,100,PH,1650908700,82,11.5882,123.3256,82.13,14.45
41,Barrow,100,US,1650908701,79,71.2906,-156.7887,10.42,6.91
42,Manokwari,33,ID,1650908702,81,-0.8667,134.0833,78.78,2.24
43,Nichinan,60,JP,1650908703,97,31.6,131.3667,69.84,5.75
44,Mitsamiouli,61,KM,1650908704,77,-11.3847,43.2844,81.37,9.62
45,Luganville,90,VU,1650908704,87,-15.5333,167.1667,76.64,7.45
46,Punta Arenas,75,CL,1650908705,81,-53.15,-70.9167,44.71,17.27
47,Aklavik,100,CA,1650908706,100,68.2191,-135.0107,32.65,1.79
48,Bluff,30,NZ,1650908707,66,-46.6,168.3333,50.81,23.44
49,Fortuna,20,US,1650908707,79,40.5982,-124.1573,60.93,8.05
50,Castro,0,BR,1650908708,48,-24.7911,-50.0119,77.54,3.42
51,Hermanus,0,ZA,1650908708,73,-34.4187,19.2345,58.8,5.17
52,San Isidro,40,PE,1650908702,71,-12.1167,-77.05,71.51,4.61
53,Dzidzantun,1,MX,1650908709,34,21.25,-89.05,95.99,6.96
54,Kampene,55,CD,1650908709,93,-3.6,26.6667,70.03,1.43
55,Dikson,96,RU,1650908710,100,73.5069,80.5464,1.44,4.63
56,Xunchang,89,CN,1650908710,78,28.4543,104.715,65.25,0.81
57,Owen Sound,100,CA,1650908711,68,44.5672,-80.9435,56.43,11.01
58,Saint-François,100,FR,1650908441,67,46.4154,3.9054,58.44,9.22
59,Hobyo,28,SO,1650908712,72,5.3505,48.5268,83.68,12.93
60,Vestmannaeyjar,75,IS,1650908713,81,63.4427,-20.2734,45.59,8.05
61,Banda Aceh,99,ID,1650908713,82,5.5577,95.3222,80.26,12.55
62,Cidreira,96,BR,1650908713,67,-30.1811,-50.2056,75.49,12.48
63,Kapaa,20,US,1650908714,82,22.0752,-159.319,75.47,14.97
64,Qaanaaq,90,GL,1650908715,66,77.484,-69.3632,11.62,4.97
65,Marsá Maţrūḩ,0,EG,1650908716,82,31.3525,27.2453,66.4,11.5
66,Atuona,32,PF,1650908717,77,-9.8,-139.0333,78.24,17.13
67,Caravelas,9,BR,1650908717,62,-17.7125,-39.2481,83.55,7.29
68,Keta,15,GH,1650908718,74,5.9179,0.9879,86.22,9.44
69,San Marcos,0,US,1650908719,17,33.1434,-117.1661,87.73,4.0
70,Sackville,53,CA,1650908720,63,45.9188,-64.3846,54.86,7.36
71,San Andrés,40,CO,1650908721,70,12.5847,-81.7006,87.82,13.8
72,Alugan,100,PH,1650908722,86,12.2188,125.4808,80.82,13.04
73,Salinópolis,75,BR,1650908722,81,-0.6136,-47.3561,81.86,9.98
74,Hualmay,95,PE,1650908723,71,-11.0964,-77.6139,72.68,9.64
75,Akhtanizovskaya,29,RU,1650908724,76,45.32,37.1,59.49,5.44
76,Narsaq,93,GL,1650908725,76,60.9167,-46.05,46.62,1.99
77,Portland,100,US,1650908621,89,45.5234,-122.6762,55.2,6.91
78,Zaraza,95,VE,1650908726,41,9.3503,-65.3245,92.28,5.17
79,Tsiroanomandidy,78,MG,1650908726,79,-18.7667,46.0333,67.08,3.15
80,Pemangkat,100,ID,1650908727,85,1.1667,108.9667,77.13,3.51
81,Inuvik,75,CA,1650908728,56,68.3499,-133.7218,40.06,9.22
82,Kamaishi,100,JP,1650908729,85,39.2667,141.8833,55.13,8.23
83,Lompoc,0,US,1650908729,64,34.6391,-120.4579,79.7,4.61
84,Constitución,100,CL,1650908730,75,-35.3333,-72.4167,57.15,7.81
85,Thaton,8,MM,1650908731,74,16.9206,97.3714,83.95,6.29
86,Aasiaat,97,GL,1650908731,86,68.7098,-52.8699,28.49,2.77
87,Pilar do Sul,3,BR,1650908731,51,-23.8131,-47.7164,80.17,2.51
88,Oranjemund,0,NA,1650908732,76,-28.55,16.4333,57.49,19.69
89,Fernley,97,US,1650908732,13,39.608,-119.2518,65.05,4.0
90,Lorengau,92,PG,1650908732,81,-2.0226,147.2712,80.37,7.07
91,Provideniya,42,RU,1650908733,87,64.3833,-173.3,23.14,12.71
92,Avarua,88,CK,1650908734,100,-21.2078,-159.775,71.65,2.3
93,Bengkulu,99,ID,1650908734,91,-3.8004,102.2655,76.08,6.93
94,Tasiilaq,100,GL,1650908734,96,65.6145,-37.6368,37.56,8.32
95,Saint Paul Harbor,100,US,1650908735,65,57.79,-152.4072,38.71,12.66
96,Nago,11,JP,1650908736,93,26.5881,127.9761,77.45,11.9
97,Sitka,20,US,1650908737,76,57.0531,-135.33,44.49,0.0
98,Kaitangata,5,NZ,1650908737,74,-46.2817,169.8464,46.58,12.19
99,Esperance,100,AU,1650908737,43,-33.8667,121.9,67.84,24.7
100,São João da Barra,28,BR,1650908738,68,-21.6403,-41.0511,78.89,9.93
101,Tazovsky,80,RU,1650908738,96,67.4667,78.7,6.06,7.67
102,Tabas,87,IR,1650908739,14,33.5959,56.9244,84.88,3.24
103,Excelsior Springs,75,US,1650908740,50,39.3392,-94.2261,55.71,9.22
104,Chokurdakh,100,RU,1650908740,92,70.6333,147.9167,6.15,6.26
105,Adré,100,TD,1650908741,20,13.4667,22.2,91.83,6.8
106,Isangel,99,VU,1650908742,69,-19.55,169.2667,76.66,15.19
107,Hinton,60,CA,1650908743,41,53.4001,-117.5857,55.0,5.19
108,Bathsheba,75,BB,1650908744,94,13.2167,-59.5167,75.81,16.11
109,Mayo,100,US,1650908599,77,38.8876,-76.5119,69.19,8.05
110,Nadym,35,RU,1650908745,93,65.5333,72.5167,13.69,7.81
111,Arraial do Cabo,40,BR,1650908745,69,-22.9661,-42.0278,80.56,12.66
112,Kahului,40,US,1650908746,83,20.8947,-156.47,74.84,20.71
113,Salalah,0,OM,1650908747,70,17.0151,54.0924,84.29,5.75
114,Bredasdorp,10,ZA,1650908748,72,-34.5322,20.0403,56.19,3.53
115,Tuatapere,25,NZ,1650908749,86,-46.1333,167.6833,42.57,6.2
116,Hobart,40,AU,1650908750,91,-42.8794,147.3294,51.06,10.36
117,George Town,20,MY,1650908566,92,5.4112,100.3354,82.33,4.61
118,Taitung City,24,TW,1650908521,82,22.7583,121.1444,78.37,5.55
119,Fowa,53,NG,1650908750,38,8.9167,6.4,91.85,3.24
120,Camacha,20,PT,1650908751,77,33.0833,-16.3333,62.02,9.22
121,Yellowknife,75,CA,1650908456,60,62.456,-114.3525,34.32,12.66
122,Saint George,0,US,1650908752,17,37.1041,-113.5841,69.44,4.61
123,The Valley,40,AI,1650908494,57,18.217,-63.0578,84.06,12.66
124,Terme,12,TR,1650908753,84,41.2092,36.9739,58.93,6.15
125,Mahajanga,94,MG,1650908754,62,-15.7167,46.3167,82.99,10.04
126,Qaqortoq,90,GL,1650908754,79,60.7167,-46.0333,39.06,6.11
127,Buin,5,CL,1650908524,42,-33.7333,-70.75,75.87,6.73
128,Nuuk,75,GL,1650908650,74,64.1835,-51.7216,32.61,4.61
129,Kilindoni,51,TZ,1650908755,77,-7.9139,39.6668,82.38,10.07
130,Lüderitz,0,NA,1650908756,60,-26.6481,15.1594,60.76,17.96
131,Richards Bay,100,ZA,1650908757,88,-28.783,32.0377,67.23,15.14
132,Uglegorsk,42,RU,1650908757,80,49.0833,142.0333,29.37,3.71
133,Yar-Sale,51,RU,1650908758,96,66.8333,70.8333,14.2,7.38
134,Padang,100,ID,1650908758,88,-0.9492,100.3543,77.61,4.65
135,Moose Factory,100,CA,1650908759,66,51.2585,-80.6094,50.0,13.8
136,Longyearbyen,75,SJ,1650908760,56,78.2186,15.6401,4.84,13.8
137,Rome,0,US,1650908747,41,43.2128,-75.4557,73.58,11.5
138,Bow Island,50,CA,1650908761,33,49.8668,-111.3684,61.81,16.11
139,Hong Kong,19,HK,1650908679,83,22.2855,114.1577,82.45,8.01
140,Choctaw,0,US,1650908675,46,35.4976,-97.2689,62.33,16.11
141,Chernyshevskiy,63,RU,1650908762,97,63.0128,112.4714,6.17,2.13
142,Cerrito,100,CO,1650908763,89,6.8432,-72.694,57.9,4.14
143,Torbay,100,CA,1650908763,94,47.6666,-52.7314,44.89,20.0
144,Yavaros,4,MX,1650908764,28,26.7,-109.5167,87.46,7.23
145,Morant Bay,37,JM,1650908765,73,17.8815,-76.4093,83.82,10.56
146,Nelson Bay,100,AU,1650908766,67,-32.7167,152.15,61.0,4.76
147,Kānt,0,IN,1650908645,13,27.8,79.8,90.66,8.25
148,Half Moon Bay,0,US,1650908767,64,37.4636,-122.4286,71.46,5.75
149,Baswa,61,IN,1650908767,14,27.15,76.5833,90.82,6.76
150,Kupang,58,ID,1650908768,80,-10.1667,123.5833,75.29,5.3
151,Flin Flon,0,CA,1650908768,33,54.7682,-101.865,21.04,8.05
152,Ahipara,50,NZ,1650908769,84,-35.1667,173.1667,61.3,7.11
153,Schisma Eloundas,12,GR,1650908770,69,35.2667,25.7167,67.84,4.27
154,Port Blair,20,IN,1650908771,83,11.6667,92.75,82.44,2.3
155,Guayaramerín,75,BO,1650908772,58,-10.8368,-65.3614,91.45,6.91
156,Pisco,0,PE,1650908773,83,-13.7,-76.2167,70.02,8.05
157,Katsuura,97,JP,1650908773,92,35.1333,140.3,66.52,3.65
158,Port Lincoln,92,AU,1650908774,80,-34.7333,135.8667,64.65,7.4
159,Mahébourg,40,MU,1650908775,73,-20.4081,57.7,75.49,11.5
160,Saint-Pierre,20,RE,1650908776,82,-21.3393,55.4781,74.88,17.27
161,Zeya,97,RU,1650908776,53,53.75,127.2667,29.05,5.32
162,Yerbogachën,69,RU,1650908777,97,61.2767,108.0108,22.89,2.75
163,Namatanai,100,PG,1650908778,81,-3.6667,152.4333,78.44,4.38
164,Thompson,20,CA,1650908779,32,55.7435,-97.8558,17.76,6.91
165,Clyde River,100,CA,1650908780,85,70.4692,-68.5914,8.83,25.32
166,Pozo Colorado,8,PY,1650908781,29,-23.4923,-58.7972,100.26,17.27
167,Srednekolymsk,92,RU,1650908781,100,67.45,153.6833,-1.23,3.71
168,Mandan,0,US,1650908703,56,46.8267,-100.8896,38.37,13.8
169,Chui,100,UY,1650908782,97,-33.6971,-53.4616,66.09,4.23
170,Silleda,57,ES,1650908783,53,42.696,-8.2465,60.1,5.08
171,Haines Junction,99,CA,1650908784,60,60.7522,-137.5108,37.35,0.0
172,Nongpoh,1,IN,1650908785,64,25.9,91.8833,72.97,3.56
173,Faanui,59,PF,1650908786,73,-16.4833,-151.75,80.64,5.95
174,Norman Wells,75,CA,1650908786,65,65.282,-126.8329,39.24,3.44
175,Houma,40,US,1650908787,63,29.5958,-90.7195,86.0,9.22
176,Gazojak,100,TM,1650908788,29,41.1875,61.4036,70.3,14.14
177,Kisesa,95,TZ,1650908789,90,-3.0833,34.15,64.54,4.68
178,Ginda,53,IN,1650908789,54,30.6945,78.4932,56.25,8.95
179,Saint-Philippe,49,RE,1650908790,83,-21.3585,55.7679,74.79,15.99
180,Cabedelo,100,BR,1650908543,80,-6.9811,-34.8339,86.67,12.77
181,Moyobamba,94,PE,1650908790,94,-6.05,-76.9667,73.89,1.57
182,Sovetskiy,100,RU,1650908791,95,61.3614,63.5842,33.87,3.69
183,Port-Gentil,40,GA,1650908792,84,-0.7193,8.7815,84.16,6.91
184,Tabou,100,CI,1650908792,81,4.423,-7.3528,80.98,6.67
185,Porto Nacional,35,BR,1650908793,53,-10.7081,-48.4172,91.4,6.29
186,Tilichiki,96,RU,1650908793,93,60.4667,166.1,23.18,10.85
187,Vila,60,PT,1650908794,67,42.0304,-8.1588,56.28,6.46
188,Belmonte,5,BR,1650908794,63,-15.8631,-38.8828,83.25,10.13
189,Korem,94,ET,1650908795,68,12.5058,39.5228,59.05,3.51
190,Tiksi,98,RU,1650908796,100,71.6872,128.8694,-6.77,3.27
191,Acajutla,8,SV,1650908796,63,13.5928,-89.8275,85.42,8.46
192,Hofn,100,IS,1650908797,87,64.2539,-15.2082,41.02,13.8
193,Mnogovershinnyy,29,RU,1650908798,85,53.9353,139.9242,14.59,3.76
194,Cockburn Town,98,TC,1650908799,67,21.4612,-71.1419,77.88,16.28
195,Tamandaré,81,BR,1650908799,76,-8.7597,-35.1047,81.32,12.08
196,Ancud,100,CL,1650908800,92,-41.8697,-73.8203,52.23,29.53
197,Adrar,0,MR,1650908801,17,20.5022,-10.0711,89.19,17.83
198,San Policarpo,100,PH,1650908802,85,12.1791,125.5072,81.41,14.12
199,Naze,31,JP,1650908803,92,28.3667,129.4833,72.52,14.32
200,Paamiut,96,GL,1650908803,88,61.994,-49.6678,31.59,14.29
201,Manga,100,BF,1650908804,8,11.6636,-1.0731,98.44,5.37
202,Nome,100,US,1650908805,93,64.5011,-165.4064,31.15,5.75
203,Mar del Plata,0,AR,1650908806,71,-38.0023,-57.5575,68.02,14.0
204,Southbridge,100,US,1650908781,33,42.0751,-72.0334,64.36,3.0
205,Santiago del Estero,3,AR,1650908807,45,-27.7951,-64.2615,90.9,4.18
206,Deder,100,ET,1650908808,87,9.3167,41.45,57.69,3.83
207,Mossamedes,2,AO,1650908808,80,-15.1961,12.1522,71.28,7.47
208,Mercedes,6,AR,1650908809,44,-34.6515,-59.4307,79.65,13.89
209,Sobolevo,100,RU,1650908810,93,54.4299,31.8996,48.65,3.15
210,Gigmoto,99,PH,1650908811,87,13.7796,124.39,80.51,10.85
211,Carnarvon,40,AU,1650908812,83,-24.8667,113.6333,68.07,3.44
212,Severo-Kuril'sk,99,RU,1650908812,87,50.6789,156.125,31.42,18.97
213,Beringovskiy,100,RU,1650908813,96,63.05,179.3167,26.1,22.53
214,Nagtipunan,34,PH,1650908814,95,16.2167,121.6,72.86,2.04
215,Coahuayana Viejo,6,MX,1650908815,36,18.7333,-103.6833,88.54,7.72
216,Posadas,0,AR,1650908816,48,-27.3671,-55.8961,89.08,17.27
217,Nanortalik,89,GL,1650908817,89,60.1432,-45.2371,35.38,9.6
218,Hilo,75,US,1650908817,92,19.7297,-155.09,71.33,4.61
219,Myitkyina,2,MM,1650908817,53,25.3833,97.4,73.13,2.37
220,Kazygurt,90,KZ,1650908818,62,41.7589,69.3864,52.52,5.68
221,Griffith,100,US,1650908819,59,41.5284,-87.4237,57.09,17.27
222,Trairi,73,BR,1650908604,85,-3.2778,-39.2689,81.0,9.53
223,Pevek,95,RU,1650908820,93,69.7008,170.3133,1.78,2.91
224,Brigantine,100,US,1650908821,74,39.4101,-74.3646,58.19,16.11
225,Upernavik,32,GL,1650908821,83,72.7868,-56.1549,21.29,0.76
226,Nœux-les-Mines,78,FR,1650908822,78,50.4801,2.6657,53.62,10.02
227,São Filipe,2,CV,1650908823,64,14.8961,-24.4956,77.38,8.93
228,Fort Nelson,100,CA,1650908550,87,58.8053,-122.7002,35.19,2.3
229,Verkhnyaya Inta,99,RU,1650908824,86,65.9811,60.3094,30.42,10.42
230,Margate,80,GB,1650908544,80,51.3813,1.3862,53.31,8.99
231,Taltal,23,CL,1650908825,77,-25.4,-70.4833,66.54,7.45
232,Balkhash,31,KZ,1650908826,59,46.844,74.9804,42.13,8.14
233,kimparana,18,ML,1650908826,8,12.8347,-4.9244,101.57,5.5
234,Gbarnga,99,LR,1650908827,73,6.9956,-9.4722,80.6,7.07
235,Malanje,81,AO,1650908828,87,-9.5402,16.341,67.03,2.06
236,Cayenne,75,GF,1650908828,7,4.9333,-52.3333,85.08,16.11
237,Diamantino,13,BR,1650908829,38,-14.4086,-56.4461,93.65,10.07
238,Jinchang,35,CN,1650908830,28,38.4953,102.1739,55.72,2.84
239,Kamina,55,CD,1650908831,94,-8.7386,24.9906,66.18,2.59
240,Rawson,84,AR,1650908831,26,-43.3002,-65.1023,63.52,21.52
241,Abu Samrah,22,SY,1650908832,38,35.3029,37.1841,72.79,11.1
242,Bandarbeyla,53,SO,1650908541,70,9.4942,50.8122,82.71,8.61
243,Sambava,70,MG,1650908833,86,-14.2667,50.1667,76.39,9.1
244,Bubaque,10,GW,1650908834,76,11.2833,-15.8333,78.22,18.43
245,Manggar,88,ID,1650908835,78,-2.8833,108.2667,81.21,1.72
246,Oxílithos,41,GR,1650908835,70,38.5833,24.1167,64.72,3.8
247,Mount Gambier,90,AU,1650908836,87,-37.8333,140.7667,53.51,5.75
248,Kamenka,73,RU,1650908837,70,51.3223,42.7678,59.76,7.63
249,Ixtapa,0,MX,1650908838,27,20.7,-105.2,91.62,7.83
250,Fomboni,58,KM,1650908839,75,-12.28,43.7425,83.23,7.02
251,Dingle,36,PH,1650908840,89,10.9995,122.6711,78.12,6.71
252,São José da Coroa Grande,85,BR,1650908840,74,-8.8978,-35.1478,81.68,13.15
253,Adwa,84,ET,1650908841,33,14.1646,38.8955,76.06,5.64
254,Flinders,100,AU,1650908842,92,-34.5833,150.8552,60.19,5.99
255,Pakxan,22,LA,1650908843,71,18.3778,103.6601,80.38,2.55
256,Leh,99,IN,1650908844,60,34.1667,77.5833,40.87,6.02
257,Labuhan,92,ID,1650908844,86,-6.8844,112.2051,79.12,3.42
258,Korla,100,CN,1650908845,26,41.7597,86.1469,63.57,24.79
259,Hamilton,75,US,1650908822,80,39.1834,-84.5333,73.65,14.97
260,Zheleznodorozhnyy,100,RU,1650908846,74,55.7503,38.0042,56.75,6.15
261,Tuktoyaktuk,100,CA,1650908847,92,69.4541,-133.0374,32.56,4.0
262,Anloga,14,GH,1650908848,75,5.7947,0.8973,83.79,8.93
263,Abū Zabad,80,SD,1650908848,6,12.35,29.25,91.47,7.05
264,San Juan de los Lagos,0,MX,1650908849,11,21.25,-102.3,83.14,5.97
265,Zabul Province,48,AF,1650908849,17,32.25,67.25,65.61,9.89
266,Murgab,20,TM,1650908850,50,37.4966,61.9714,75.07,11.5
267,Auki,50,SB,1650908850,89,-8.7676,160.7034,77.29,3.02
268,Alofi,99,NU,1650908851,94,-19.0595,-169.9187,75.09,9.22
269,Cheremisinovo,94,RU,1650908851,72,51.8855,37.2646,54.88,7.31
270,Ozernovskiy,100,RU,1650908851,91,51.5,156.5167,31.05,14.79
271,Novozaimka,83,RU,1650908852,83,56.4857,66.9241,44.42,9.17
272,Kaeng Khoi,16,TH,1650908852,71,14.5862,100.9976,89.98,12.48
273,Iquique,100,CL,1650908853,70,-20.2208,-70.1431,68.04,8.39
274,Yulara,35,AU,1650908853,77,-25.2406,130.9889,58.84,5.75
275,Mundybash,68,RU,1650908853,94,53.211,87.2983,27.41,2.66
276,Sayyan,72,YE,1650908854,51,15.1718,44.3244,61.74,1.61
277,Tobol,80,KZ,1650908854,46,52.6844,62.5794,54.21,8.88
278,Shaoyang,66,CN,1650908854,95,27.2315,111.4525,69.51,5.5
279,Kavieng,20,PG,1650908855,73,-2.5744,150.7967,81.64,9.04
280,Illapel,0,CL,1650908856,39,-31.6308,-71.1653,75.09,7.67
281,Gizo Government Station,93,SB,1650908856,74,-8.103,156.8419,81.9,3.27
282,City of San Pedro,40,PH,1650908566,77,14.35,121.0167,83.43,4.61
283,Dekar,51,BW,1650908857,36,-21.5333,21.9333,72.12,9.4
284,Kiryat Gat,0,IL,1650908580,100,31.61,34.7642,80.4,7.61
285,Aksu,51,CN,1650908857,25,41.1231,80.2644,67.05,16.51
286,Tocopilla,99,CL,1650908631,74,-22.092,-70.1979,69.84,7.16
287,Sur,0,OM,1650908857,46,22.5667,59.5289,87.6,7.38
288,Vardø,75,NO,1650908858,86,70.3705,31.1107,31.98,9.22
289,Misratah,94,LY,1650908859,64,32.3754,15.0925,65.75,13.67
290,Takoradze,54,GH,1650908860,80,4.8845,-1.7554,82.08,6.64
291,Lishui,99,CN,1650908861,98,28.4604,119.9103,72.84,1.36
292,Forsytheganj,70,BY,1650908861,88,52.6333,29.7333,52.47,2.62
293,Nicolás Bravo,56,MX,1650908862,51,18.45,-88.9167,86.38,5.37
294,Alekseyevsk,100,RU,1650908863,96,57.8406,108.3492,28.47,5.08
295,Jining,19,CN,1650908864,94,35.405,116.5814,58.08,7.0
296,Solok,100,ID,1650908865,96,-0.7918,100.6593,72.05,1.95
297,Ribeira Grande,20,PT,1650908866,63,38.5167,-28.7,63.0,12.66
298,Aykhal,91,RU,1650908866,97,66.0,111.5,9.73,3.38
299,Mezen',100,RU,1650908867,92,65.8522,44.24,33.71,5.39
300,Orlik,21,RU,1650908867,82,52.5178,99.825,10.67,3.62
301,Lohr a. Main,77,DE,1650908867,89,49.9936,9.5783,55.22,4.68
302,Comodoro Rivadavia,40,AR,1650908794,38,-45.8667,-67.5,57.06,24.16
303,Port Macquarie,100,AU,1650908868,80,-31.4333,152.9167,58.89,1.61
304,Aktobe,0,KZ,1650908869,70,50.2797,57.2072,44.69,4.47
305,San Cristobal,98,VE,1650908870,48,7.7669,-72.225,73.58,6.2
306,Moss Vale,100,AU,1650908871,96,-34.55,150.3833,52.16,1.39
307,Yeniseysk,96,RU,1650908871,88,58.4497,92.1703,31.82,6.51
308,Yangi Marg`ilon,50,UZ,1650908871,63,40.4272,71.7189,66.92,4.61
309,Makakilo City,0,US,1650908872,69,21.3469,-158.0858,74.68,13.8
310,Khatanga,30,RU,1650908873,100,71.9667,102.5,-9.47,3.24
311,Manta,100,EC,1650908608,74,-0.95,-80.7333,83.98,3.44
312,Birao,98,CF,1650908874,22,10.2849,22.7882,95.61,5.77
313,Hithadhoo,41,MV,1650908875,73,-0.6,73.0833,85.01,7.58
314,Boa Vista,75,BR,1650908876,52,2.8197,-60.6733,91.38,6.91
315,‘Āhuimanu,40,US,1650908876,74,21.4447,-157.8378,75.85,13.8
316,Astoria,100,US,1650908877,69,46.1879,-123.8313,54.43,8.05
317,Kita,33,ML,1650908878,10,13.0349,-9.4895,101.7,7.52
318,Saint-Augustin,98,CA,1650908879,94,51.226,-58.6502,39.9,10.4
319,Gao,1,ML,1650908654,9,16.6362,1.637,93.67,10.47
320,Jalu,87,LY,1650908880,11,29.0331,21.5482,86.02,9.95
321,Marzuq,57,YE,1650908880,59,14.4,46.4667,75.67,5.35
322,Acarí,99,PE,1650908881,57,-15.4311,-74.6158,78.12,9.91
323,Ossora,100,RU,1650908882,95,59.2353,163.0719,27.16,12.39
324,Bajos de Haina,75,DO,1650908883,67,18.4154,-70.0332,87.73,12.66
325,Chara,100,RU,1650908884,85,56.9064,118.2631,24.87,2.77
326,Kabinda,40,CD,1650908885,89,-6.1333,24.4833,69.48,3.06
327,Byron Bay,100,AU,1650908885,73,-28.65,153.6167,60.69,5.95
328,Agadir,32,MA,1650908886,59,30.4202,-9.5982,68.45,12.35
329,Petauke,25,ZM,1650908887,72,-14.2426,31.3253,69.04,4.92
330,Iqaluit,100,CA,1650908887,85,63.7506,-68.5145,4.73,29.93
331,Rancho Veloz,9,CU,1650908888,56,22.8806,-80.3917,83.77,19.08
332,Ürümqi,0,CN,1650908889,66,43.801,87.6005,49.15,11.18
333,Cherskiy,100,RU,1650908890,82,68.75,161.3,17.42,4.59
334,Pangnirtung,100,CA,1650908890,93,66.1451,-65.7125,23.0,24.16
335,Arrondissement de Figeac,71,FR,1650908891,76,44.75,1.9167,55.78,1.66
336,Cap Malheureux,4,MU,1650908892,70,-19.9842,57.6142,75.47,4.0
337,Inta,99,RU,1650908893,87,66.0317,60.1659,30.38,11.03
338,Ostrovnoy,100,RU,1650908894,98,68.0531,39.5131,34.12,4.29
339,Cortez,0,US,1650908894,28,37.3489,-108.5859,54.03,0.0
340,Muzhi,92,RU,1650908895,97,65.3667,64.6667,23.4,5.37
341,Hay River,40,CA,1650908896,46,60.8156,-115.7999,46.38,9.22
342,Agadez,0,NE,1650908897,7,19.75,10.25,95.34,10.13
343,Quatre Cocos,27,MU,1650908898,69,-20.2078,57.7625,75.31,15.66
344,La Flèche,80,FR,1650908898,66,47.6982,-0.0755,62.85,11.07
345,Provincia di Viterbo,27,IT,1650908899,83,42.4167,12.0833,57.78,6.15
346,Soyo,88,AO,1650908900,85,-6.1349,12.3689,78.96,9.82
347,Walla Walla,0,US,1650908670,53,46.0646,-118.343,63.86,8.01
348,Itarema,90,BR,1650908901,84,-2.9248,-39.9167,79.63,11.01
349,Khovd,100,MN,1650908902,26,48.0056,91.6419,34.11,3.42
350,Te Anau,23,NZ,1650908903,92,-45.4167,167.7167,40.24,1.25
351,Kalabo,82,ZM,1650908903,62,-14.97,22.6814,70.63,5.73
352,Luang Prabang,7,LA,1650908903,82,19.8856,102.1347,76.19,2.01
353,Corrente,64,BR,1650908904,74,-3.7367,-43.3394,83.39,4.41
354,Rosarito,6,MX,1650908904,28,32.3333,-117.0333,88.41,8.3
355,Cloquet,100,US,1650908905,74,46.7216,-92.4594,35.85,11.5
356,Bambous Virieux,40,MU,1650908906,73,-20.3428,57.7575,75.45,11.5
357,Kem',100,RU,1650908907,85,64.9555,34.5793,34.18,3.69
358,Faya,11,SA,1650908907,51,18.3851,42.4509,66.31,3.62
359,Lavrentiya,81,RU,1650908908,87,65.5833,-171.0,19.26,6.51
360,Guánica,31,PR,1650908908,69,17.9716,-66.908,84.51,10.63
361,Yamada,100,JP,1650908908,84,39.4667,141.95,54.91,6.69
362,San Buenaventura,87,MX,1650908909,59,27.0833,-101.5333,83.48,10.0
363,Puri,5,IN,1650908909,90,19.8,85.85,84.72,16.02
364,Dubbo,100,AU,1650908910,88,-32.25,148.6167,57.33,10.36
365,Lodja,86,CD,1650908911,96,-3.4833,23.4333,71.69,0.87
366,Kuala Sungai Baru,100,MY,1650908911,85,2.3594,102.0353,77.04,5.77
367,La Plata,22,AR,1650908900,47,-34.9215,-57.9545,76.01,10.25
368,Grand-Lahou,76,CI,1650908912,79,5.1367,-5.0242,81.39,7.78
369,Nelipyno,88,UA,1650908912,95,48.561,23.0315,48.16,3.91
370,Simao,0,CN,1650908913,48,22.7886,100.9748,65.68,0.29
371,Conceição da Barra,34,BR,1650908913,61,-18.5933,-39.7322,83.1,9.01
372,Kindu,99,CD,1650908914,96,-2.95,25.95,72.3,2.48
373,Toumodi,48,CI,1650908914,57,6.5613,-5.0158,85.86,5.23
374,Deputatsky,100,RU,1650908915,99,69.3,139.9,-0.17,2.44
375,Beitbridge,25,ZW,1650908916,46,-22.2167,30.0,77.85,9.91
376,Sibiti,100,CG,1650908917,93,-3.6819,13.3499,72.39,1.39
377,Vestmanna,75,FO,1650908917,81,62.1564,-7.1664,40.12,20.71
378,Trabzon Province,0,TR,1650908918,77,40.9167,39.8333,51.89,9.22
379,Nemuro,38,JP,1650908919,79,43.3236,145.575,39.54,9.98
380,Vallenar,0,CL,1650908920,26,-28.5708,-70.7581,79.75,7.92
381,Cascais,61,PT,1650908781,70,38.6979,-9.4215,65.52,14.0
382,Cabo San Lucas,7,MX,1650908647,69,22.8909,-109.9124,84.06,4.68
383,Havre-St-Pierre,40,CA,1650908921,81,50.2334,-63.5986,39.56,9.22
384,Leningradskiy,78,RU,1650908921,96,69.3833,178.4167,4.82,6.29
385,Tibú,98,CO,1650908922,54,8.639,-72.7358,90.19,2.68
386,Neuquén,0,AR,1650908866,24,-38.9516,-68.0591,64.29,16.11
387,Cacequi,97,BR,1650908923,65,-29.8836,-54.825,82.47,16.49
388,Souillac,40,MU,1650908924,73,-20.5167,57.5167,75.58,11.5
389,Yarmouth,0,US,1650908925,53,41.7057,-70.2286,60.98,9.22
390,Harper,100,LR,1650908926,82,4.375,-7.7169,80.71,5.97
391,Kushmurun,53,KZ,1650908926,40,52.4503,64.6311,51.1,11.7
392,Mehamn,20,NO,1650908926,80,71.0357,27.8492,30.15,6.91
393,Touros,41,BR,1650908927,62,-5.1989,-35.4608,84.85,13.27
394,Katherine,40,AU,1650908928,57,-14.4667,132.2667,80.92,5.75
395,Gīdolē,100,ET,1650908929,93,5.65,37.3667,57.06,2.15
396,Whitehorse,75,CA,1650908930,84,60.7161,-135.0538,42.1,2.3
397,Prince Rupert,100,CA,1650908930,87,54.3161,-130.3201,44.69,24.16
398,Berlevåg,97,NO,1650908931,66,70.8578,29.0864,30.2,14.81
399,Buchanan,94,LR,1650908931,80,5.8808,-10.0467,81.75,9.08
400,Sakaiminato,75,JP,1650908932,94,35.55,133.2333,60.78,5.75
401,Mahibadhoo,65,MV,1650908933,65,3.7833,72.9667,84.88,2.95
402,Olafsvik,93,IS,1650908934,76,64.8945,-23.7142,44.96,5.08
403,Lago da Pedra,52,BR,1650908935,73,-4.3333,-45.1667,84.07,5.12
404,Manjacaze,21,MZ,1650908935,97,-24.7117,33.8828,70.83,4.81
405,Grand Gaube,6,MU,1650908936,70,-20.0064,57.6608,75.6,4.0
406,Haapiti,4,PF,1650908937,73,-17.5667,-149.8667,80.33,4.43
407,Leshukonskoye,100,RU,1650908938,91,64.8989,45.7622,33.44,2.93
408,Lubuk Pakam,97,ID,1650908939,92,3.5604,98.8767,75.34,1.86
409,Oga,84,IT,1650908939,97,46.4631,10.347,45.28,1.57
410,Vangaindrano,99,MG,1650908940,84,-23.35,47.6,73.02,4.74
411,Kupino,33,RU,1650908941,48,54.3663,77.2981,41.38,6.89
412,Geraldton,75,AU,1650908941,83,-28.7667,114.6,68.41,13.8
413,Mattru,65,SL,1650908942,66,7.6244,-11.8332,84.65,8.57
414,Camopi,95,GF,1650908943,93,3.1655,-52.3158,80.11,3.87
415,Zhalantun,100,CN,1650908944,99,48.0,122.7167,35.55,5.3
416,Norrköping,20,SE,1650908944,33,58.5942,16.1826,57.58,4.61
417,Flagstaff,0,US,1650908881,22,35.1981,-111.6513,62.1,1.99
418,Poirino,40,IT,1650908945,63,44.9208,7.8469,63.79,0.0
419,Risod,2,IN,1650908946,16,19.9667,76.7833,91.83,9.8
420,Ilulissat,75,GL,1650908947,86,69.2167,-51.1,28.42,3.44
421,Kalmunai,75,LK,1650908947,77,7.4167,81.8167,81.73,5.5
422,Oriximiná,80,BR,1650908948,71,-1.7656,-55.8661,85.23,4.47
423,Mersing,20,MY,1650908948,100,2.4312,103.8405,75.11,5.75
424,Kamiiso,85,JP,1650908949,69,41.8167,140.65,49.86,2.37
425,Tommot,100,RU,1650908950,97,58.9564,126.2925,27.07,0.38
426,Kashgar,66,CN,1650908950,11,39.4547,75.9797,69.01,13.42
427,Slave Lake,0,CA,1650908951,43,55.2834,-114.769,48.18,23.02
428,Vila Velha,75,BR,1650908952,70,-20.3297,-40.2925,84.15,13.8
429,Nahariya,0,IL,1650908953,88,33.0059,35.0941,71.51,8.77
430,Codrington,85,AU,1650908953,82,-38.2667,141.9667,54.52,8.23
431,Singaraja,43,ID,1650908953,82,-8.112,115.0882,79.84,2.04
432,Ayer Tawar,40,MY,1650908954,94,4.2954,100.7548,79.09,0.0
433,Dvinskoy,99,RU,1650908954,93,62.1535,45.1175,39.72,7.29
434,Varkaus,84,FI,1650908954,76,62.3153,27.873,38.91,2.24
435,West Wendover,0,US,1650908955,40,40.7391,-114.0733,51.01,9.22
436,San Quintín,0,MX,1650908955,27,30.4833,-115.95,75.15,7.09
437,Datong,44,CN,1650908956,21,40.0936,113.2914,51.1,19.82
438,Anadyr,0,RU,1650908956,79,64.75,177.4833,25.3,22.37
439,Kumul,78,CN,1650908956,23,42.8,93.45,66.79,15.73
440,Grajaú,51,BR,1650908957,74,-5.8194,-46.1386,83.86,5.75
441,Praia,0,CV,1650908957,37,14.9215,-23.5087,84.74,20.71
442,Surgut,0,RU,1650908958,60,61.25,73.4167,39.38,6.71
443,Angoche,100,MZ,1650908958,87,-16.2325,39.9086,78.01,3.91
444,Lata,70,PT,1650908958,61,40.1629,-8.3327,61.81,7.27
445,Sørland,91,NO,1650908959,62,67.667,12.6934,37.26,25.95
446,Kokkola,20,FI,1650908959,84,63.8385,23.1307,41.04,5.75
447,Chul'man,74,RU,1650908959,98,56.8479,124.9104,5.34,1.05
448,Dillon,0,US,1650908862,41,34.4166,-79.3712,84.94,8.61
449,Riberalta,75,BO,1650908960,62,-10.9833,-66.1,89.8,9.22
450,Martapura,100,ID,1650908960,100,-3.4167,114.85,77.09,3.44
451,Gander,75,CA,1650908960,66,48.9682,-54.5906,51.93,16.11
452,Sars,100,RU,1650908961,92,56.5502,57.1366,47.16,5.55
453,Belaya Gora,74,RU,1650908961,100,68.5333,146.4167,-5.48,3.22
454,La Asuncion,100,VE,1650908961,66,11.0333,-63.8628,85.73,17.27
455,Keti Bandar,0,PK,1650908962,75,24.1447,67.4497,82.18,13.33
456,Nagato,97,JP,1650908962,92,34.3833,131.2,62.2,16.51
457,Ambilobe,47,MG,1650908962,83,-13.2,49.05,74.19,5.12
458,Ugoofaaru,56,MV,1650908963,69,5.6667,73.0,84.83,2.1
459,San Ramon,0,US,1650908963,55,37.7799,-121.978,71.82,3.0
460,Kushiro,29,JP,1650908963,86,42.975,144.3747,38.55,3.89
461,Liberal,0,US,1650908706,30,37.0431,-100.921,53.74,13.8
462,Seymchan,99,RU,1650908964,88,62.8833,152.4333,9.07,7.23
463,Podgornoye,0,RU,1650908964,67,51.735,39.1496,55.62,2.24
464,Chumikan,8,RU,1650908965,92,54.7183,135.315,21.27,5.32
465,Sinnamary,97,GF,1650908965,76,5.3833,-52.95,82.78,9.48
466,Kondopoga,100,RU,1650908965,100,62.2057,34.2614,38.88,2.51
467,Burns Lake,83,CA,1650908966,59,54.2331,-125.7533,42.22,3.04
468,Moelv,92,NO,1650908966,56,60.9333,10.7,49.08,6.69
469,Paita,70,PE,1650908966,72,-5.0892,-81.1144,73.8,12.59
470,Alice Springs,11,AU,1650908810,94,-23.7,133.8833,53.15,0.0
471,Vila Franca do Campo,4,PT,1650908967,68,37.7167,-25.4333,61.21,11.86
472,Matara,84,LK,1650908967,88,5.9485,80.5353,78.85,2.51
473,Xining,67,CN,1650908967,55,36.6167,101.7667,50.59,3.0
474,Pangody,51,RU,1650908968,95,65.85,74.4859,9.72,7.76
475,Agropoli,0,IT,1650908958,86,40.3469,14.9966,56.44,2.91
476,Arman',100,RU,1650908968,73,59.7,150.1667,22.96,10.25
477,Magdalena,30,PH,1650908969,91,14.1999,121.429,81.36,5.97
478,Simpang,99,ID,1650908970,96,-1.2667,104.0833,75.18,0.94
479,Balashov,57,RU,1650908838,72,51.5502,43.1667,58.08,8.88
480,Saldanha,0,ZA,1650908971,77,-33.0117,17.9442,57.25,17.94
481,Chengdu,0,CN,1650908971,68,30.6667,104.0667,69.69,6.71
482,Husavik,85,IS,1650908971,73,66.0449,-17.3389,43.86,3.58
483,Kenora,100,CA,1650908972,68,49.8167,-94.4337,20.37,13.8
484,Arrondissement de Chartres,37,FR,1650908972,69,48.4167,1.5,62.71,12.53
485,Alta Floresta,75,BR,1650908972,49,-9.8756,-56.0861,94.82,6.91
486,Luwingu,77,ZM,1650908973,94,-10.2621,29.9271,63.16,3.42
487,Rabo de Peixe,40,PT,1650908973,72,37.8,-25.5833,60.31,17.27
488,Bantry,93,IE,1650908973,77,51.6833,-9.45,53.78,12.73
489,Savannah Bight,0,HN,1650908974,75,16.45,-85.85,81.01,13.89
490,Molchanovo,99,RU,1650908974,83,57.5817,83.7692,34.39,8.12
491,Fairbanks,100,US,1650908687,65,64.8378,-147.7164,41.34,0.0
492,Nosy Varika,58,MG,1650908975,80,-20.5833,48.5333,74.08,4.99
493,Price,0,US,1650908975,34,39.5994,-110.8107,53.11,6.91
494,Polonnaruwa,71,LK,1650908975,86,7.9333,81.0,77.85,1.52
495,College,75,US,1650908976,65,64.8569,-147.8028,41.32,0.0
496,Gejiu,0,CN,1650908976,55,23.306,103.1635,58.42,1.74
497,Tailai,75,CN,1650908976,85,46.3833,123.4,41.92,12.75
498,Klaksvík,92,FO,1650908977,83,62.2266,-6.589,41.92,17.83
499,Mto wa Mbu,100,TZ,1650908977,82,-3.35,35.85,71.55,1.39
500,Bereda,61,ES,1650908977,70,43.2686,-7.5406,57.42,2.82
501,Laguna,0,US,1650908978,40,38.421,-121.4238,73.02,5.75
502,Comarapa,86,BO,1650908978,73,-17.9,-64.4833,67.5,7.78
503,Riyadh,98,SA,1650908834,44,24.6877,46.7219,73.54,19.84
504,Sokna,100,NO,1650908978,44,60.24,9.9235,58.91,8.72
505,Ruidoso,12,US,1650908979,40,33.3317,-105.673,57.51,7.43
506,Piriyāpatna,91,IN,1650908979,88,12.3397,76.0992,73.33,4.38
507,Naryan-Mar,99,RU,1650908980,97,67.6713,53.087,29.89,9.89
508,Antalaha,49,MG,1650908980,87,-14.9003,50.2788,74.25,7.54
509,Araouane,0,ML,1650908981,13,18.9048,-3.5265,90.97,11.3
510,Vanimo,98,PG,1650908981,90,-2.6741,141.3028,77.86,5.37
511,Aldan,98,RU,1650908982,95,58.6031,125.3894,20.79,4.7
512,Ikovka,97,RU,1650908982,81,55.6089,64.9375,48.99,7.47
513,Hindoria,0,IN,1650908983,12,23.9,79.5667,90.54,6.31
514,Airai,99,TL,1650908984,77,-8.9266,125.4092,57.88,0.92
515,Mount Isa,100,AU,1650908985,100,-20.7333,139.5,69.57,2.3
516,Bud,100,US,1650908985,95,39.447,-86.1758,58.75,11.72
517,Springbok,0,ZA,1650908986,24,-29.6643,17.8865,55.33,6.22
518,Raduzhny,90,RU,1650908986,93,62.0961,77.475,20.77,5.37
519,Kenai,100,US,1650908986,100,60.5544,-151.2583,42.15,0.0
520,Plouzané,0,FR,1650908987,65,48.3833,-4.6167,59.05,12.66
521,Develi,59,TR,1650908987,47,38.3906,35.4922,70.95,4.09
522,Necochea,1,AR,1650908987,37,-38.5473,-58.7368,64.6,5.32
523,Tortolì,20,IT,1650908988,72,39.9256,9.6572,62.42,6.91
524,Manuk Mangkaw,77,PH,1650908988,69,4.8,119.85,83.84,1.21
525,Kirakira,48,SB,1650908988,83,-10.4544,161.9205,79.83,3.22
526,Oruzgan,100,AF,1650908989,20,32.8333,66.0,68.43,1.81
527,Lábrea,65,BR,1650908989,63,-7.2586,-64.7981,87.71,5.57
528,Labuan,40,MY,1650908989,94,5.2767,115.2417,79.16,0.0
529,Broome,91,US,1650908990,52,42.2506,-75.833,72.46,8.01
530,Gardelegen,100,DE,1650908990,71,52.5252,11.3952,50.99,5.23
531,Port Hardy,75,CA,1650908991,81,50.6996,-127.4199,46.58,9.22
532,Kathu,68,TH,1650908991,74,7.9178,98.3332,76.82,1.21
533,Carballo,57,ES,1650908991,68,43.213,-8.691,64.09,2.37
534,Coruripe,71,BR,1650908992,70,-10.1256,-36.1756,82.2,13.78
535,Mt. Pleasant,0,US,1650908809,57,32.7941,-79.8626,84.0,9.22
536,Carrollton,40,US,1650908972,60,32.9537,-96.8903,69.13,19.57
537,Ponta Delgada,40,PT,1650908711,72,37.7333,-25.6667,61.52,17.27
538,Neiafu,40,TO,1650908993,94,-18.65,-173.9833,77.68,2.3
539,Oussouye,3,SN,1650908993,38,12.485,-16.5469,109.58,13.09
540,Pogar,100,RU,1650908994,95,52.554,33.2591,53.69,4.99
541,Ambon City,40,ID,1650908944,94,-3.6954,128.1814,75.34,4.61
542,Kuytun,32,RU,1650908994,79,54.3419,101.5036,25.86,3.65
543,Ternate,91,ID,1650908994,79,0.8,127.4,81.25,1.54
544,Uppsala County,75,SE,1650908995,44,60.0,17.75,54.84,14.97
545,Luže,100,CZ,1650908995,99,49.8934,16.0285,48.85,2.15
546,Indramayu,98,ID,1650908882,82,-6.3264,108.32,80.35,5.3
547,Zhigansk,61,RU,1650908996,96,66.7697,123.3711,2.34,2.15
548,Mitú,44,CO,1650908997,81,1.1983,-70.1733,82.4,1.54
549,Montepuez,98,MZ,1650908997,96,-13.1256,38.9997,69.87,3.38
550,Wamba,67,NG,1650908998,46,8.9333,8.6,87.78,1.92
551,La Reforma,0,MX,1650908998,30,25.0833,-108.05,83.5,9.31
552,Bosaso,72,SO,1650908999,74,11.2842,49.1816,84.13,1.05
553,Ponta do Sol,50,PT,1650909000,81,32.6667,-17.1,67.12,10.38
554,Hirara,17,JP,1650909000,86,24.8,125.2833,78.89,17.2
555,Morondava,98,MG,1650909001,73,-20.2833,44.2833,81.75,6.33
556,Dangara,57,IN,1650909001,19,29.6799,75.8931,87.31,5.17
557,Evanston,75,US,1650909001,57,42.0411,-87.6901,52.97,16.11
558,Tigil',100,RU,1650909002,98,57.8,158.6667,26.94,3.65
559,Galveston,75,US,1650908878,74,29.3669,-94.9669,88.09,12.66
560,La Ronge,20,CA,1650909003,39,55.1001,-105.2842,26.85,12.66
561,Carutapera,97,BR,1650909003,81,-1.195,-46.02,81.09,7.85
562,Tandil,4,AR,1650908904,21,-37.3217,-59.1332,66.69,0.94
563,Goderich,99,CA,1650908932,71,43.7501,-81.7165,55.72,4.61
564,Taoudenni,0,ML,1650909004,14,22.6783,-3.9836,89.26,17.22
565,Shimoda,96,JP,1650909005,88,34.6667,138.95,63.1,1.23
566,Lima,40,PE,1650908718,82,-12.0432,-77.0282,64.65,4.61
567,St. George's,75,GD,1650908806,74,12.0564,-61.7485,83.88,5.75
568,Hūn,82,LY,1650909006,13,29.1268,15.9477,79.25,11.18
569,Tarko-Sale,40,RU,1650909006,92,64.9225,77.785,10.09,8.93
570,Bandiagara,20,ML,1650909007,9,14.3501,-3.6104,97.29,10.4
571,Talnakh,94,RU,1650909007,97,69.4865,88.3972,-0.8,4.05
572,Lagoa,2,PT,1650909008,72,39.05,-27.9833,58.19,12.86
573,Hailey,0,US,1650908866,35,43.5196,-114.3153,52.99,7.0
574,Rocha,100,UY,1650909008,97,-34.4833,-54.3333,67.19,4.47
575,Bethel,100,US,1650909007,34,41.3712,-73.414,63.41,3.44
576,Liwale,95,TZ,1650909009,97,-9.7667,37.9333,70.2,2.33
577,Galle,94,LK,1650909010,81,6.0367,80.217,80.74,0.76
578,Baijiantan,99,CN,1650909011,75,45.6333,85.1833,53.71,9.78
579,Wenling,100,CN,1650909012,99,28.3669,121.36,66.29,7.94
580,Verāval,0,IN,1650909012,60,20.9,70.3667,83.05,12.1
581,Palencia,18,ES,1650909013,54,42.4167,-4.5,64.92,3.98
